{"schema":{"fields":[{"name":"longitude","type":"number"},{"name":"latitude","type":"number"},{"name":"title","type":"string"}],"primaryKey":["longitude"],"pandas_version":"1.4.0"},"data":[{"longitude":-73.85236518,"latitude":42.68996297,"title":"1 Crossgates Mall Rd. 12203 Albany USA"},{"longitude":-73.81944318,"latitude":42.70927778,"title":"131 Colonie Center 12205 Albany USA"},{"longitude":-106.5715605,"latitude":35.10550898,"title":"6600 Menaul NE 87110 Albuquerque USA"},{"longitude":-77.04869558,"latitude":38.80476788,"title":"614 King Street 22314 Alexandria USA"},{"longitude":-96.66318268,"latitude":33.13256138,"title":"820 West Stacy Road 75013 Allen USA"},{"longitude":-84.29696473,"latitude":34.04812033,"title":"1081 North Point Mall 30022 Alpharetta USA"},{"longitude":-81.37959298,"latitude":28.66661228,"title":"451 E Altamonte Drive 32701 Altamonte Springs USA"},{"longitude":-78.41307158,"latitude":40.46933937,"title":"5580 Goods Lane Suite #0758 Altoona"},{"longitude":-78.82244608,"latitude":42.98893517,"title":"730 Alberta Drive 14226 Amherst USA"},{"longitude":-149.869478,"latitude":61.14349208,"title":"800 E Dimond Blvd 99515 Anchorage USA"},{"longitude":-76.55079248,"latitude":38.98962517,"title":"2140 Annapolis Mall 21401 Annapolis USA"},{"longitude":-88.47360948,"latitude":44.26894197,"title":"4301 W Wisconsin Ave 54913 Appleton USA"},{"longitude":-118.0537777,"latitude":34.1347002,"title":"400 S Baldwin Ave 91007 Arcadia USA"},{"longitude":-97.13204678,"latitude":32.68085598,"title":"3811 South Cooper  Suite 1804 Arlington"},{"longitude":-82.52855138,"latitude":35.58102218,"title":"3 South Tunnel Road 28805 Asheville USA"},{"longitude":-84.40881872,"latitude":33.79163219,"title":"30363 Atlanta Atlanta USA"},{"longitude":-84.47096178,"latitude":33.88080048,"title":"1620 Cumberland Mall 30339 Atlanta USA"},{"longitude":-84.34316508,"latitude":33.92455908,"title":"4400 Ashford Dunwoody Road 30346 Atlanta USA"},{"longitude":-84.09799578,"latitude":33.69918948,"title":"2929 Turner Hill Road  Suite 2750 Atlanta"},{"longitude":-87.62688373,"latitude":41.88188163,"title":"116 North Michigan Avenue  Suite #215 Atlantic City"},{"longitude":-122.2458647,"latitude":47.29807907,"title":"1101 SuperMall Way 98001 Auburn USA"},{"longitude":-83.30341168,"latitude":42.70301947,"title":"4696 Baldwin Road 48326 Auburn Hills USA"},{"longitude":-82.08099378,"latitude":33.46362228,"title":"3450 Wrightsboro Road 30909 Augusta USA"},{"longitude":-88.21124248,"latitude":41.75657837,"title":"1276 Fox Valley Center 60504 Aurora USA"},{"longitude":-104.7070729,"latitude":39.6015703,"title":"6155 S. Main Street 80016 Aurora USA"},{"longitude":-97.72867628,"latitude":30.40169488,"title":"11410 Century Oaks Terrace 78758 Austin USA"},{"longitude":-80.14725768,"latitude":25.95729658,"title":"19501 Biscayne Boulevard 33180 Aventura USA"},{"longitude":-119.0375104,"latitude":35.33807298,"title":"3001 Ming Ave Suite 540 93304 Bakersfield USA"},{"longitude":-76.46929708,"latitude":39.37457377,"title":"8200 Perry Hall Blvd  Suite 1325 Baltimore"},{"longitude":-91.09012708,"latitude":30.38963898,"title":"6401 Bluebonnet Blvd. 70836 Baton Rouge  LA"},{"longitude":-66.16527734,"latitude":18.40677969,"title":"725 West Main Avenue 00961 Bayamon USA"},{"longitude":-81.54145189,"latitude":41.47550964,"title":"44122 Beachwood Beachwood USA"},{"longitude":-94.16388638,"latitude":30.12405148,"title":"6155 Eastex Fwy #200 77706 Beaumont USA"},{"longitude":-97.94530388,"latitude":30.30972198,"title":"12912 Hill Country Boulevard  Suite D2-145 Bee Cave"},{"longitude":-122.4923081,"latitude":48.7858027,"title":"1 Bellis Fair Parkway 98226 Bellingham USA"},{"longitude":-108.5818098,"latitude":45.76540177,"title":"300 south 24th Street W 59102 Billings USA"},{"longitude":-100.7875923,"latitude":46.79732122,"title":"706 Kirkwood Mall  Building F Bismarck"},{"longitude":-86.49663148,"latitude":39.16177527,"title":"2894 E 3rd Street 47401 Bloomington USA"},{"longitude":-93.24446608,"latitude":44.85565053,"title":"118 Central Parkway 55425 Bloomington  MN"},{"longitude":-80.81985428,"latitude":32.24034588,"title":"1414 Fording Island Rd  Space #E150 Bluffton"},{"longitude":-116.2813756,"latitude":43.6075002,"title":"350 North Milwaukee 83704 Boise USA"},{"longitude":-116.3556264,"latitude":43.6212008,"title":"3600 E Fairview Ave 83642 Meridian USA"},{"longitude":-88.04473538,"latitude":41.71715247,"title":"619 East Boughton Road 60440 Bolingbrook USA"},{"longitude":-71.07696408,"latitude":42.35148088,"title":"100 Newbury Street 02116 Boston USA"},{"longitude":-71.02505828,"latitude":42.22173498,"title":"250 Granite Street 02184 Braintree USA"},{"longitude":-93.21586838,"latitude":36.64388798,"title":"1005 Branson Landing 65616 Branson USA"},{"longitude":-117.88896,"latitude":33.9148217,"title":"1058A Brea Mall 92821 Brea USA"},{"longitude":-73.82862198,"latitude":40.86437977,"title":"200 Baychester Avenue 10475 Bronx USA"},{"longitude":-73.92302498,"latitude":40.61040558,"title":"5100 Kings Plaza 11234 Brooklyn USA"},{"longitude":-73.98733348,"latitude":40.69081757,"title":"497-501 Fulton Street 11201 Brooklyn USA"},{"longitude":-105.1333835,"latitude":39.9324924,"title":"1 W. FlatIron Crossing 80021 Broomfield USA"},{"longitude":-97.50507578,"latitude":25.95341638,"title":"2370 N Expressway  Space I Brownsville"},{"longitude":-78.76550038,"latitude":42.91356927,"title":"1 Walden Galleria 14225 Buffalo USA"},{"longitude":-83.98638788,"latitude":34.06482798,"title":"3333 Buford Drive 30519 Buford USA"},{"longitude":-118.3148303,"latitude":34.1833318,"title":"201 E. Magnolia Boulevard  Suite 212 Burbank"},{"longitude":-115.5112892,"latitude":32.6652434,"title":"888 West 2nd Street  Suite D100 Calexico"},{"longitude":-119.0637276,"latitude":34.21750668,"title":"740 Ventura Boulevard 93010 Camarillo USA"},{"longitude":-76.93469098,"latitude":40.22263077,"title":"3506 Capital City Drive  Space #0728 Camp Hill"},{"longitude":-118.6060235,"latitude":34.18985893,"title":"6600 Topanga Canyon 91303 Canoga Park USA"},{"longitude":-117.3346385,"latitude":33.1781876,"title":"2525 El Camino Real  Space 114 Carlsbad"},{"longitude":-104.8769307,"latitude":39.41732917,"title":"5050 Factory Shops Blvd 80108 Castle Rock USA"},{"longitude":-96.94410128,"latitude":32.60250788,"title":"305 W. Farm to Market Road 1382 75104 Cedar Hill USA"},{"longitude":-97.80850988,"latitude":30.47090928,"title":"11200 Lakeline Mall Drive 78613 Cedar Park USA"},{"longitude":-104.9653056,"latitude":39.59218687,"title":"6851 S Gaylord St 80122 Centennial USA"},{"longitude":-88.24496038,"latitude":40.14254808,"title":"2000 North Neil Street #0490 61820 Champaign  IL"},{"longitude":-111.9005946,"latitude":33.30147038,"title":"3111 West Chandler Boulevard 85226 Chandler USA"},{"longitude":-79.93652598,"latitude":32.78272608,"title":"281 King Street 29401 Charleston USA"},{"longitude":-80.83392118,"latitude":35.15065238,"title":"4400 Sharon Road 28211 Charlotte USA"},{"longitude":-80.85328708,"latitude":35.35299258,"title":"6801 Northlake Mall Dr. 28216 Charlotte USA"},{"longitude":-85.16090728,"latitude":35.03400888,"title":"2100 Hamilton Pl Blvd 37421 Chattanooga USA"},{"longitude":-75.02775828,"latitude":39.94249498,"title":"2000 Route 38 08002 Cherry Hill USA"},{"longitude":-76.22946028,"latitude":36.77961288,"title":"1401 Greenbrier Parkway South  Building G Chesapeake"},{"longitude":-90.80975322,"latitude":38.63552243,"title":"63005 Chesterfield Chesterfield USA"},{"longitude":-87.62691968,"latitude":41.89803387,"title":"840 North Michigan Ave 60611 Chicago USA"},{"longitude":-87.63448058,"latitude":41.86888357,"title":"150 W Roosevelt Rd 60605 Chicago USA"},{"longitude":-87.78576598,"latitude":41.71553038,"title":"444 Chicago Ridge Mall 60415 Chicago Ridge  IL"},{"longitude":-121.8077352,"latitude":39.7289392,"title":"1950 E 20th Street 95928 Chico USA"},{"longitude":-116.9690156,"latitude":32.6244482,"title":"2015 Birch Road 91915 Chula Vista USA"},{"longitude":-84.37341758,"latitude":39.37137718,"title":"7140 Foundry Row 45069 Liberty Township USA"},{"longitude":-117.9307274,"latitude":33.9937648,"title":"1600 Azusa Ave 91748 City of Industry USA"},{"longitude":-96.30585728,"latitude":30.62519708,"title":"1500 Harvey Rd  Space#5020 College Station"},{"longitude":-89.72214968,"latitude":35.02407938,"title":"4674 Merchants Park Circle 38017 Collierville  TN"},{"longitude":-77.4225139,"latitude":37.25435021,"title":"Building G 23834 Colonial Heights USA"},{"longitude":-104.7949419,"latitude":38.94931738,"title":"1710 Briargate Blvd 80920 Colorado Springs USA"},{"longitude":-76.86367008,"latitude":39.21570358,"title":"10300 Little Patuxent Parkway 21044 Columbia USA"},{"longitude":-92.37768898,"latitude":38.96391327,"title":"2300 Bernadette Dr 65203 Columbia USA"},{"longitude":-82.91703893,"latitude":40.05171567,"title":"140 Easton Town Center 43219 Columbus USA"},{"longitude":-82.98424628,"latitude":40.14562418,"title":"1500 Polaris Parkway 43240 Columbus USA"},{"longitude":-118.1550289,"latitude":34.00594438,"title":"100 Citadel Dr 90040 City of Commerce USA"},{"longitude":-83.47596258,"latitude":34.25006008,"title":"800 Steven B Tanger Blvd 30529 Commerce USA"},{"longitude":-80.72611848,"latitude":35.37006888,"title":"8111 Concord Mills Blvd 28027 Concord USA"},{"longitude":-122.0634725,"latitude":37.96873507,"title":"313 Sunvalley Mall Road  Suite B-206 Concord"},{"longitude":-91.66820529,"latitude":41.69483979,"title":"52241 Coralville Coralville USA"},{"longitude":-97.37551618,"latitude":27.71161338,"title":"5488 S. Padre Island Drive  Space 7000 Corpus Christi"},{"longitude":-117.8950484,"latitude":33.69194128,"title":"3333 Bear Street 92626 Costa Mesa USA"},{"longitude":-106.7453719,"latitude":32.3106107,"title":"700 S Telshor Blvd 88011 Las Cruces USA"},{"longitude":-118.3955063,"latitude":33.985431,"title":"6000 Sepulveda Boulevard 90230 Culver City USA"},{"longitude":-96.77404688,"latitude":32.86873568,"title":"8687 North Central Expressway 75225 Dallas USA"},{"longitude":-96.82146228,"latitude":32.93109088,"title":"13350 Dallas Parkway 75240 Dallas USA"},{"longitude":-122.4734148,"latitude":37.6726595,"title":"16 Serramonte Center 94015 Daly City USA"},{"longitude":-73.48314538,"latitude":41.38031808,"title":"7 Backus Ave 06810 Danbury USA"},{"longitude":-70.99405338,"latitude":41.64153057,"title":"200 Dartmouth Mall  Unit #1396 Dartmouth"},{"longitude":-90.57676788,"latitude":41.56339267,"title":"320 West Kimberly Road  Suite 0016 Daveport"},{"longitude":-84.05890588,"latitude":39.76737708,"title":"2727 Fairfield Commons Dr 45431 Beavercreek USA"},{"longitude":-84.22315208,"latitude":39.63368188,"title":"2700 Miamisburg Centerville Rd 45459 Dayton USA"},{"longitude":-81.06459888,"latitude":29.19704508,"title":"1700 W International Speedway Blvd 32114 Daytona Beach USA"},{"longitude":-81.10033188,"latitude":29.21216698,"title":"1100 Cornerstone  Suite 590 Daytona Beach"},{"longitude":-83.22503853,"latitude":42.31685563,"title":"18900 Michigan Avenue 48126 Dearborn USA"},{"longitude":-97.11126228,"latitude":33.19036538,"title":"2201 I-35E South 76205 Denton USA"},{"longitude":-104.992697,"latitude":39.74287007,"title":"500 16th Street Suite 130 80202 Denver USA"},{"longitude":-104.9548189,"latitude":39.71681828,"title":"3000 East 1st Avenue 80206 Denver USA"},{"longitude":-104.8944216,"latitude":39.78312557,"title":"8216 Northfield Blvd 80238 Denver USA"},{"longitude":-75.13551838,"latitude":39.84652788,"title":"1750 Deptford Ave 08096 Deptford USA"},{"longitude":-90.45021438,"latitude":38.60082648,"title":"80 West County Center 63131 Des Peres USA"},{"longitude":-86.42669278,"latitude":30.39071498,"title":"4261 Legendary Drive 32541 Destin USA"},{"longitude":-83.41816168,"latitude":42.41386788,"title":"37700 Six Mile Road 48152 Livonia USA"},{"longitude":-83.05205138,"latitude":42.33497177,"title":"1505 Woodward Avenue 48226 Detroit USA"},{"longitude":-84.74827218,"latitude":33.72772448,"title":"6700 Douglas Boulevard 30135 Douglassville USA"},{"longitude":-118.1221727,"latitude":33.9357679,"title":"251 Stonewood Street #L01 90241 Downey USA"},{"longitude":-83.13324608,"latitude":40.07318138,"title":"5043 Tuttle Crossing Blvd 43016 Dublin USA"},{"longitude":-77.42585068,"latitude":39.03201358,"title":"21100 Dulles Town Circle 20166 Dulles USA"},{"longitude":-78.94440398,"latitude":35.90434238,"title":"6910 Fayetteville Rd Suite 2240 Durham"},{"longitude":-74.12800729,"latitude":40.82450316,"title":"07073 East Rutherford East Rutherford USA"},{"longitude":-74.33756618,"latitude":40.54664708,"title":"510 Menlo Park 08837 Edison USA"},{"longitude":-116.9694021,"latitude":32.8052282,"title":"415 Parkway Plaza 92020 El Cajon USA"},{"longitude":-106.3832151,"latitude":31.77372228,"title":"8401 Gateway Blvd. West 79925 El Paso USA"},{"longitude":-106.587629,"latitude":31.91213968,"title":"7051 S. Desert Blvd 79835 Canutillo USA"},{"longitude":-74.17325788,"latitude":40.65995338,"title":"651 Kapkowski Road 07201 Elizabeth USA"},{"longitude":-122.2941153,"latitude":37.83418727,"title":"5630 Bay Street 94608 Emeryville USA"},{"longitude":-80.10138468,"latitude":42.07046567,"title":"654 Millcreek Mall 16565 Erie USA"},{"longitude":-117.0684149,"latitude":33.0714191,"title":"200 E Via Rancho Parkway 92025 Escondido USA"},{"longitude":-81.77716738,"latitude":26.43470998,"title":"10801 Corkscrew Road  Suite 71 Estero"},{"longitude":-123.1074184,"latitude":44.06802847,"title":"293 Valley River Center 97401 Eugene USA"},{"longitude":-77.36131208,"latitude":38.86254968,"title":"11750 Fair Oaks Mall 22033 Fairfax USA"},{"longitude":-122.0568297,"latitude":38.26038407,"title":"1350 Travis Blvd 94533 Fairfield USA"},{"longitude":-90.07384144,"latitude":38.59648168,"title":"62208 Fairview Heights Fairview Heights USA"},{"longitude":-72.76522008,"latitude":41.72367928,"title":"31 Westfarms Mall 06032 Farmington USA"},{"longitude":-111.9056497,"latitude":40.9860956,"title":"320 N. Station Parkway 84025 Farmington USA"},{"longitude":-78.96383118,"latitude":35.07211068,"title":"419 Cross Creek Mall 28303 Fayetteville USA"},{"longitude":-83.77051688,"latitude":42.98107878,"title":"3425 South Linden Road 48507 Flint USA"},{"longitude":-79.83507998,"latitude":34.19153648,"title":"2701 David McLeod Boulevard Unit #1119 29501 Florence  SC"},{"longitude":-87.68327233,"latitude":30.37541108,"title":"2601 S. McKenzie Street  Space No.200 Foley"},{"longitude":-121.1231062,"latitude":38.64960207,"title":"410 Palladio Parkway  Ste 1609 Folsom"},{"longitude":-105.0763529,"latitude":40.54292067,"title":"215 E Foothills Pkwy #220 80525 Fort Collins USA"},{"longitude":-80.11561968,"latitude":26.13712898,"title":"2414 E Sunrise Blvd 33304 Fort Lauderdale USA"},{"longitude":-80.32467198,"latitude":26.14873848,"title":"12801 W Sunrise Boulevard 33323 Sunrise USA"},{"longitude":-85.13805138,"latitude":41.11336678,"title":"4201 Coldwater Rd 46805 Fort Wayne USA"},{"longitude":-97.40061848,"latitude":32.67832738,"title":"4800 S Hulen St  Unit # 2380 Forth Worth"},{"longitude":-97.28291278,"latitude":33.02106178,"title":"15829 North Freeway  Suite 180 Forth Worth"},{"longitude":-86.81574968,"latitude":35.95711598,"title":"1800 Galleria Boulevard 37067 Franklin USA"},{"longitude":-77.40738538,"latitude":39.38253017,"title":"5500 Buckeystown Pike Suite 0432 Frederick"},{"longitude":-77.51541708,"latitude":38.29245678,"title":"137 Spotsylvania Mall 22407 Fredericksburg USA"},{"longitude":-74.23311298,"latitude":40.15617978,"title":"3710 Route 9   Space #C236 Freehold"},{"longitude":-119.7909334,"latitude":36.8488071,"title":"110 El Camino 93720 Fresno USA"},{"longitude":-119.7795037,"latitude":36.8068679,"title":"559 E Shaw Avenue 93710 Fresno USA"},{"longitude":-95.15081798,"latitude":29.54194388,"title":"500 Baybrook Mall 77546 Friendswood USA"},{"longitude":-96.81409478,"latitude":33.09820478,"title":"2601 Preston Road Suite 2240 75034 Frisco USA"},{"longitude":-81.71430018,"latitude":35.08197818,"title":"1 Factory Shops Blvd  Unit 825 Gaffney"},{"longitude":-82.41342538,"latitude":29.65801748,"title":"6419 Newberry Road 32605 Gainesville USA"},{"longitude":-73.61642608,"latitude":40.73824847,"title":"630 Old Country Road 11530 Garden City USA"},{"longitude":-121.6511715,"latitude":37.0091463,"title":"95020 Gilroy Gilroy USA"},{"longitude":-118.2598383,"latitude":34.14462378,"title":"891 Americana Way 91210 Glendale USA"},{"longitude":-87.91701348,"latitude":43.12228217,"title":"5765 North Bayshore Drive 53217 Glendale USA"},{"longitude":-112.2684398,"latitude":33.5353032,"title":"6800 N. 95th Avenue 85305 Glendale USA"},{"longitude":-112.2275443,"latitude":33.64200928,"title":"7700 West Arrowhead Towne Center 85308 Glendale USA"},{"longitude":-85.58984718,"latitude":42.91500858,"title":"3195 28th Street SE 49512 Grand Rapids  MI"},{"longitude":-85.67416988,"latitude":42.80968727,"title":"350 84th Street SW 49315 Byron Center  MI"},{"longitude":-85.79247557,"latitude":42.90361001,"title":"49418 Grandville Grandvillie USA"},{"longitude":-97.04377838,"latitude":32.96822998,"title":"3000 Grapevine Mills Parkway 76051 Grapevine USA"},{"longitude":-79.83997633,"latitude":36.03935148,"title":"236 Four Seasons Town Centre 27427 Greensboro USA"},{"longitude":-79.51076528,"latitude":40.30075907,"title":"5256 Route 30  Space 240 Greensburg"},{"longitude":-96.25296833,"latitude":41.09894528,"title":"21209 Nebraska Crossing Drive  Space No. T101 Gretna"},{"longitude":-89.10107338,"latitude":30.42915748,"title":"1000 Factory Shops Boulevard 39503 Gulfport USA"},{"longitude":-87.95711108,"latitude":42.38856668,"title":"6170  Grand Avenue 60031 Gurnee USA"},{"longitude":-77.77207178,"latitude":39.62470618,"title":"17301 Valley Mall RoadSpace #0165  Hagerstown"},{"longitude":-76.39621178,"latitude":37.04357138,"title":"2521 McMenamin Street 23666 Hampton USA"},{"longitude":-76.72828778,"latitude":39.15748378,"title":"7000 Arundel Mills Circle 21076 Hanover USA"},{"longitude":-122.5744068,"latitude":45.4341676,"title":"12000 SE 82nd Ave. Suite 1065 97086 Happy Valley USA"},{"longitude":-96.99400878,"latitude":32.709518,"title":"925 E Market St  Space #0323 Harrisonburg"},{"longitude":-122.1039919,"latitude":37.65121042,"title":"One Southland Mall Drive  Space 324 Hayward"},{"longitude":-115.0440097,"latitude":36.0669808,"title":"1300 West Sunset Road 89014 Henderson USA"},{"longitude":-80.32112768,"latitude":25.86803118,"title":"1675 W 49th St 33012 Hialeah  FL"},{"longitude":-81.30740048,"latitude":35.70319868,"title":"1960 Highway 70 SE #244 28602 Hickory USA"},{"longitude":-73.53165948,"latitude":40.77282547,"title":"906 Broadway Mall 11801 Hicksville USA"},{"longitude":-122.8809463,"latitude":45.53799257,"title":"19350 NW Emma Way 97124 Hillsboro USA"},{"longitude":-72.64354558,"latitude":42.16763017,"title":"50 Holyoke Street 01040 Holyoke USA"},{"longitude":-157.8302453,"latitude":21.27901058,"title":"2270 Kalakaua Avenue 96815 Honolulu USA"},{"longitude":-86.80979298,"latitude":33.37894388,"title":"2000 Riverchase Galleria 35244 Hoover USA"},{"longitude":-95.54103318,"latitude":29.96040868,"title":"1156 Willowbrook Mall 77070 Houston  TX"},{"longitude":-95.81153408,"latitude":29.77552188,"title":"5000 Katy Mills Circle Space 619 77494 Katy  TX"},{"longitude":-95.46658538,"latitude":29.73719448,"title":"5135 W Alabama  Space 5221 Houston"},{"longitude":-95.39609048,"latitude":29.55265078,"title":"11200 W Broadway St 77584 Pearland  TX"},{"longitude":-84.00108228,"latitude":42.62257768,"title":"1475 N. Burkhart Road  Suite E150 Howell"},{"longitude":-95.27242818,"latitude":30.00948428,"title":"20131 US-59  Humble"},{"longitude":-117.9993422,"latitude":33.65437598,"title":"21060 Pacific Coast Highway  Suite G100\/G200 Huntington Beach"},{"longitude":-86.67533758,"latitude":34.71734488,"title":"340 The Bridge Street 35806 Huntsville USA"},{"longitude":-76.95768668,"latitude":38.96834617,"title":"3500 East-West Highway Space#1024 Hyattsville"},{"longitude":-94.37191996,"latitude":39.04808172,"title":"18801 East 39th Street South  Room J08A Independence"},{"longitude":-86.06756768,"latitude":39.90922727,"title":"6020 East 82nd Street 46250 Indianopolis USA"},{"longitude":-117.7456776,"latitude":33.65016083,"title":"890 Irvine Spectrum Center Drive 92618 Irvine USA"},{"longitude":-90.13150628,"latitude":32.40312328,"title":"1200 E Countyline Road 39157 Ridgeland USA"},{"longitude":-81.55617518,"latitude":30.18455648,"title":"10300 Southside Blvd 32256 Jacksonville USA"},{"longitude":-74.04018178,"latitude":40.72684058,"title":"30 Mall Dr W 07310 Jersey City USA"},{"longitude":-88.16774558,"latitude":41.57624727,"title":"3340 Mall Loop Dr 60431 Joliet USA"},{"longitude":-94.47570618,"latitude":37.09043988,"title":"101 North Rangeline Road Building H Joplin"},{"longitude":-94.82752118,"latitude":39.12575227,"title":"1803 Village West Parkway  Suite M-103 Kansas"},{"longitude":-94.59491328,"latitude":39.04251618,"title":"440 West 47th Street 64112 Kansas City USA"},{"longitude":-94.40440438,"latitude":38.92828617,"title":"840 NW Blue Pkwy 64086 Lee's Summit USA"},{"longitude":-158.0568562,"latitude":21.3351102,"title":"91-5431 Kapolei Parkway 96709 Kapolei USA"},{"longitude":-84.56666318,"latitude":34.01770988,"title":"400 Ernest W Barrett Pkwy NW 30144 Kennesaw USA"},{"longitude":-97.71869768,"latitude":31.09338018,"title":"2100 South W S Young Drive  Suite 1090 Killeen"},{"longitude":-75.39291758,"latitude":40.08931757,"title":"160 N Gulph Rd 19406 King of Prussia USA"},{"longitude":-84.04058588,"latitude":35.92448528,"title":"7600 Kingston Pike 37919 Knoxville USA"},{"longitude":-86.85259068,"latitude":40.39154367,"title":"2415 Sagamore Pkwy South 47905 Lafayette USA"},{"longitude":-92.07787308,"latitude":30.17121238,"title":"5725 Johnston S 70503 Lafayette  LA"},{"longitude":-73.13170928,"latitude":40.86574088,"title":"118 Smith Haven Mall 11755 Lake Grove USA"},{"longitude":-81.98011998,"latitude":28.09281498,"title":"3800 US Hwy. 98 N. 33809 Lakeland USA"},{"longitude":-105.1575067,"latitude":39.7321451,"title":"14500 W Colfax Ave 80401 Lakewood USA"},{"longitude":-118.1417231,"latitude":33.85060938,"title":"500 Lakewood Center Mall 90712 Lakewood  CA"},{"longitude":-76.34117328,"latitude":40.06741357,"title":"142 Park City Center 17601 Lancaster USA"},{"longitude":-76.22457678,"latitude":40.02651648,"title":"311 Stanley K Tanger Blvd  Space #1540 Lancaster"},{"longitude":-74.88318398,"latitude":40.18312058,"title":"23 East Lincoln Highway 19047 Langhorne USA"},{"longitude":-99.50207598,"latitude":27.55174658,"title":"5300 San Dario Ave.  Space D Laredo"},{"longitude":-99.51211638,"latitude":27.50178658,"title":"1600 Water Street  Suite #B320 Laredo"},{"longitude":-115.1804516,"latitude":36.0670446,"title":"6611 Las Vegas Blvd Suite 159 89119 Las Vegas USA"},{"longitude":-115.1723998,"latitude":36.10965633,"title":"3663 Las Vegas Blvd 89109 Las Vegas USA"},{"longitude":-115.1785371,"latitude":36.11824213,"title":"3500 Las Vegas Blvd South 89109 Las Vegas USA"},{"longitude":-115.3346076,"latitude":36.1505629,"title":"1940 Park Centre Drive 89135 Las Vegas USA"},{"longitude":-74.68392928,"latitude":40.29076058,"title":"3320 Brunswick Pike  1239A and ST04 Lawrenceville"},{"longitude":-84.08169078,"latitude":33.98112278,"title":"5900 Sugarloaf Pkwy.  209A Lawrenceville"},{"longitude":-118.942863,"latitude":34.98444088,"title":"5701 Outlets at Tejon Parkway  Suite 190 Lebec"},{"longitude":-86.59807508,"latitude":33.54849068,"title":"6200 Grand River Blvd East Suite 216 Leeds"},{"longitude":-111.8848582,"latitude":40.43408948,"title":"3700 North Cabelas Blvd 84043 Lehi USA"},{"longitude":-84.52932258,"latitude":37.99061088,"title":"3401 Nicholasville Rd 40503 Lexington USA"},{"longitude":-96.63866998,"latitude":40.81581172,"title":"98 Gateway Mall 68505 Lincoln USA"},{"longitude":-92.34500048,"latitude":34.75336238,"title":"6000 W. Markham Drive  Space D Little Rock"},{"longitude":-92.41012458,"latitude":34.66085118,"title":"11201 Bass Pro Parkway - Suite #N101 72210 Little Rock  AR"},{"longitude":-105.0977535,"latitude":39.6119331,"title":"8501 W Bowles Ave 80123 Littleton USA"},{"longitude":-121.8471649,"latitude":37.698556,"title":"2774 Livermore Outlets Dr 94551 Livermore USA"},{"longitude":-74.35617068,"latitude":40.77716247,"title":"112 Eisenhower Parkway 07039 Livingston USA"},{"longitude":-88.00999153,"latitude":41.83915933,"title":"370 Yorktown Center 60148 Lombard USA"},{"longitude":-118.1965271,"latitude":33.76480658,"title":"37 Aquarium Way 90802 Long Beach USA"},{"longitude":-94.75290488,"latitude":32.53933028,"title":"3500 McCann Rd 75605 Longview USA"},{"longitude":-118.379682,"latitude":34.0753308,"title":"8500 Beverly Blvd 90048 Los Angeles USA"},{"longitude":-118.2633478,"latitude":34.0494228,"title":"735 South Figueroa Street Suite 303 90017 Los Angeles USA"},{"longitude":-118.4210547,"latitude":34.05900308,"title":"10250 Santa Monica Blvd 90067 Los Angeles USA"},{"longitude":-118.0846343,"latitude":34.0360444,"title":"1852 Montebello Town Center Drive 90640 Montebello USA"},{"longitude":-85.61210528,"latitude":38.24704617,"title":"7900 Shelbyville Road 40222 Louisville USA"},{"longitude":-85.95695635,"latitude":38.18847209,"title":"1155 Buck Creek Road  Suite K-1000 Louisville"},{"longitude":-85.67268118,"latitude":38.14135297,"title":"4801 Outer Loop 40219 Louisville USA"},{"longitude":-101.9273679,"latitude":33.53927488,"title":"6002 Slide Rd 79414 Lubbock USA"},{"longitude":-122.2763312,"latitude":47.82766887,"title":"3000 184th Street SW 98037 Lynwood USA"},{"longitude":-83.71820018,"latitude":32.92723098,"title":"5080 Riverside Drive  Suite 214 Macon"},{"longitude":-89.50870048,"latitude":43.05618087,"title":"52 West Towne Mall 53719 Madison USA"},{"longitude":-89.30738658,"latitude":43.12506608,"title":"89 East Towne Mall  Space H Madison"},{"longitude":-77.50787398,"latitude":38.77192767,"title":"8300 Sudley Road 20109 Manassas USA"},{"longitude":-72.54866938,"latitude":41.80787208,"title":"194 Buckland Hills Dr 06042 Manchester USA"},{"longitude":-96.56104068,"latitude":39.17941587,"title":"100 Manhattan Town Center  Suite 280 Manhattan"},{"longitude":-93.95675688,"latitude":44.17308428,"title":"1850 Adams St  Suite 312 Mankato"},{"longitude":-93.43914858,"latitude":45.09224968,"title":"12285 Elm Creek Boulevard North 55369 Maple Grove USA"},{"longitude":-93.10053828,"latitude":45.01492765,"title":"55109 St Paul Maplewood USA"},{"longitude":-71.61519628,"latitude":42.35599738,"title":"601 Donald Lynch Blvd 01752 Marlborough USA"},{"longitude":-71.96830636,"latitude":41.47472142,"title":"455 Trolley Line Blvd 06338 Mashantucket USA"},{"longitude":-73.43692208,"latitude":40.68362817,"title":"1105 Sunrise Mall Rd 11758 Massapequa USA"},{"longitude":-74.64569508,"latitude":39.45385298,"title":"4403 Black Horse Pike 08330 May's Landing USA"},{"longitude":-98.23762888,"latitude":26.18828598,"title":"2200 S. 10th Street 78503 McAllen USA"},{"longitude":-77.22498248,"latitude":38.91701347,"title":"1961 Chain Bridge Rd 22102 McLean USA"},{"longitude":-80.65204848,"latitude":28.08134198,"title":"1700 W. New Haven Avenue 32904 Melbourne USA"},{"longitude":-89.79043228,"latitude":35.20018068,"title":"2760 North Germantown Parkway  Space 2240A Memphis"},{"longitude":-89.91510038,"latitude":35.11704778,"title":"4465 Popular Ave Space #2200 38117 Memphis USA"},{"longitude":-97.89001428,"latitude":26.16293508,"title":"500 E. US Express Way 83 78570 Mercedes USA"},{"longitude":-87.31156948,"latitude":41.46876378,"title":"1939 Southlake Mall Unit #438 46410 Merrillville  Indiana"},{"longitude":-96.62569128,"latitude":32.80697078,"title":"2063 Town East Mall 75150 Mesquite USA"},{"longitude":-80.36695528,"latitude":25.78730418,"title":"1455 NW 107th Ave  Room 660A Miami"},{"longitude":-80.38254763,"latitude":25.78795058,"title":"11401 NW 12th St 33172 Miami USA"},{"longitude":-80.13619258,"latitude":25.79091948,"title":"551 Lincoln Road 33139 Miami USA"},{"longitude":-86.90756058,"latitude":41.71504897,"title":"601 Wabash St 46360 Michigan City USA"},{"longitude":-74.37151378,"latitude":41.45221627,"title":"1 Galleria Drive 10941 Middletown USA"},{"longitude":-73.03773108,"latitude":41.23599378,"title":"1201 Boston Road 06460 Milford USA"},{"longitude":-121.9001607,"latitude":37.41444297,"title":"1220 Great Mall Drive 95035 Milpitas USA"},{"longitude":-88.11100338,"latitude":43.03092748,"title":"95 North Moorland Road 53005 Brookfield USA"},{"longitude":-88.00638898,"latitude":42.94837728,"title":"5300 S 76th St 53129 Greendale USA"},{"longitude":-93.29985558,"latitude":44.94756997,"title":"3001 Hennepin Ave S 55408 Minneapolis USA"},{"longitude":-93.43876048,"latitude":44.96767037,"title":"12401 Wayzata Boulevard 55305 Minnetonka USA"},{"longitude":-114.0307851,"latitude":46.84506547,"title":"2901 Brooks St. 59801 Missoula USA"},{"longitude":-88.12383708,"latitude":30.67206898,"title":"3452 Bel Air Mall 36606 Mobile USA"},{"longitude":-92.06676598,"latitude":32.49996438,"title":"4700 Millhaven Road  Suite 1404 Monroe"},{"longitude":-79.80200658,"latitude":40.43104837,"title":"200 Monroeville Mall 15146 Monroeville USA"},{"longitude":-117.6969131,"latitude":34.0865965,"title":"5007 Montclair Plaza Lane 91763 Montclair USA"},{"longitude":-121.8978123,"latitude":36.58415667,"title":"700 Del Monte Center 93940 Monterey USA"},{"longitude":-86.16578174,"latitude":32.36002045,"title":"7274 Eastchase Ln 36117 Montgomery USA"},{"longitude":-74.96329618,"latitude":39.94611187,"title":"400 Route 38 08057 Moorestown USA"},{"longitude":-84.35358398,"latitude":33.57498808,"title":"1000 Southlake Circle 30260 Morrow USA"},{"longitude":-86.44611818,"latitude":35.85799268,"title":"2615 Med Center Pkwy  Suite 2000 Murfreesboro"},{"longitude":-111.8901345,"latitude":40.6361973,"title":"6187 S. State Street 84107 Murray USA"},{"longitude":-78.92566478,"latitude":33.70363388,"title":"2000 Coastal Grand Circle  Myrtle Beach Myrtle Beach"},{"longitude":-78.77725918,"latitude":33.78422158,"title":"10835 Kings Road  Space No. 500 Myrtle Beach"},{"longitude":-81.79862528,"latitude":26.17017368,"title":"1900 Tamiami Trail North 34102 Naples USA"},{"longitude":-86.69445478,"latitude":36.20296468,"title":"433 Opry Mills Dr. 37214 Nashville USA"},{"longitude":-71.38552128,"latitude":42.30067397,"title":"1245 Worcester Street 01760 Natick USA"},{"longitude":-117.0679896,"latitude":32.6562123,"title":"3030 Plaza Bonita Road 91950 National city USA"},{"longitude":-90.06645778,"latitude":29.95480118,"title":"418 North Peters Street 70130 New Orleans USA"},{"longitude":-90.04264398,"latitude":29.92371078,"title":"197 Westbank Expwy 70053 Gretna USA"},{"longitude":-73.80072468,"latitude":40.70348798,"title":"160-08 Jamaica Avenue 11432 Jamaica (Queens) USA"},{"longitude":-73.94900718,"latitude":40.80871198,"title":"125 West 125th Street 10027 New York USA"},{"longitude":-73.99339328,"latitude":40.73845347,"title":"111 5th Ave 10003 New York USA"},{"longitude":-73.95755738,"latitude":40.77910538,"title":"150 East 86th Street 10028 New York USA"},{"longitude":-73.98537528,"latitude":40.76855258,"title":"10 Columbus Circle 10019 New York USA"},{"longitude":-73.98823228,"latitude":40.75601487,"title":"1472 Broadway 10036 New York USA"},{"longitude":-73.98000338,"latitude":40.75694657,"title":"589 Fifth Avenue 10017 New York USA"},{"longitude":-73.99064508,"latitude":40.74959028,"title":"1293 Broadway 10001 New York City USA"},{"longitude":-74.01391678,"latitude":40.71038638,"title":"18 Church Street 10007 New York City USA"},{"longitude":-74.00219328,"latitude":40.75387998,"title":"500 West 33rd Street Hudson Yards 10001 New York USA"},{"longitude":-75.65404258,"latitude":39.67825667,"title":"106 Christiana Mall 19702 Newark USA"},{"longitude":-122.0033679,"latitude":37.52647547,"title":"2086 Newpark Mall 94560 Newark USA"},{"longitude":-70.80959308,"latitude":43.09988288,"title":"508 Fox Run Rd 03801 Newington USA"},{"longitude":-76.48720168,"latitude":37.09045728,"title":"12300 Jefferson Ave.Route 143 &amp; I-64 23602 Newport News USA"},{"longitude":-78.98006038,"latitude":43.09894328,"title":"1900 Military Rd  Space 320 Niagara Falls"},{"longitude":-80.75247488,"latitude":41.21158798,"title":"5555 Youngstown Warren Road 44446 Niles USA"},{"longitude":-76.29028588,"latitude":36.84882138,"title":"300 Monticello Avenue 23510 Norfolk USA"},{"longitude":-76.20314138,"latitude":36.88090307,"title":"1600 Premium Outlets Boulevard  Unit 800 Norfolk"},{"longitude":-71.35224048,"latitude":41.94650583,"title":"151 Emerald Square 02760 North Attelboro USA"},{"longitude":-77.11959768,"latitude":39.05010238,"title":"11850 Grand Park Avenue 20852 North Bethesda USA"},{"longitude":-80.01938058,"latitude":32.87163018,"title":"4840 Tanger Outlet Blvd #768 29418 Charleston USA"},{"longitude":-80.04606758,"latitude":32.94360018,"title":"2150 Northwoods Boulevard  Building F North Charleston"},{"longitude":-87.81307918,"latitude":41.84625237,"title":"7501 West Cermak Road 60546 North Riverside  IL"},{"longitude":-77.31599796,"latitude":39.63393296,"title":"230 Montgomery Mall  Room #2054A North wales"},{"longitude":-118.5582765,"latitude":34.23841388,"title":"9301 Tampa Avenue 91324 Northridge USA"},{"longitude":-73.42090038,"latitude":41.10485558,"title":"100 N. Water Street 06854 Norwalk USA"},{"longitude":-83.47149898,"latitude":42.49232793,"title":"27500 Novi Rd 48377 Novi USA"},{"longitude":-87.95341358,"latitude":41.85206308,"title":"466 Oakbrook Center 60523 Oak Brook USA"},{"longitude":-84.42175308,"latitude":42.72535528,"title":"1982 W Grand River Ave  Suite H Okemos"},{"longitude":-97.56106258,"latitude":35.61032808,"title":"2501 Memorial rd  Suite 149 Oklahoma City"},{"longitude":-122.9358236,"latitude":47.04189408,"title":"625 Black Lake Boulevard SW  Suite G6 Olympia"},{"longitude":-96.07043898,"latitude":41.26687918,"title":"10000 California St 68114 Omaha USA"},{"longitude":-117.5571237,"latitude":34.07268642,"title":"One Mills Circle 91764 Ontario USA"},{"longitude":-117.8951172,"latitude":33.7826671,"title":"20 City Blvd W 92868 Orange USA"},{"longitude":-111.6827939,"latitude":40.27504378,"title":"575 E University Parkway 84097 Orem USA"},{"longitude":-87.85478538,"latitude":41.61837787,"title":"288 Orland Square Park 60462 Orland Park USA"},{"longitude":-81.39766758,"latitude":28.44593328,"title":"8001 South Orange Blossom Trail  Suite #1400 Orlando"},{"longitude":-81.43369348,"latitude":28.48553688,"title":"4200 Conroy Road 32839 Orlando USA"},{"longitude":-81.45309288,"latitude":28.47553728,"title":"4951 International Dr 32819 Orlando USA"},{"longitude":-94.72100938,"latitude":38.95342168,"title":"11149 West 95th Street 66214 Overland Park USA"},{"longitude":-119.1793931,"latitude":34.2388369,"title":"500 Town Center Drive 93036 Oxnard USA"},{"longitude":-77.00420508,"latitude":38.79377297,"title":"6800 Oxon Hill Road  suite 100 Oxon Hill"},{"longitude":120.7310068,"latitude":24.8444323,"title":"Unit # 260 42001 Paducah USA"},{"longitude":-116.3968633,"latitude":33.7235998,"title":"72-840 Highway 111 92260 Palm Desert USA"},{"longitude":-116.5493606,"latitude":33.82532048,"title":"111 North Palm Canyon Drive  Suite CO. 35 Palm Springs"},{"longitude":-118.1541631,"latitude":34.60443618,"title":"1233 W Rancho Vista Blvd 93551 Palmdale USA"},{"longitude":-74.07949698,"latitude":40.91829237,"title":"1 Garden State Plaza Blvd 07653 Paramus USA"},{"longitude":-74.07162658,"latitude":40.95656788,"title":"680 Bergen Town Center - Suite A10 07652 Paramus USA"},{"longitude":-118.1470469,"latitude":34.14566498,"title":"300 E. Colorado Boulevard  Suite 102 Pasadena"},{"longitude":-70.94677878,"latitude":42.54141958,"title":"210 Andover Street 01960 Peabody USA"},{"longitude":-80.30661128,"latitude":26.01063318,"title":"11401 Pines Boulevard 33026 Pembroke Pines USA"},{"longitude":-87.21346338,"latitude":30.47478758,"title":"5100 North 9th Avenue 32504 Pensacola USA"},{"longitude":-75.16926718,"latitude":39.95094128,"title":"1530 Chestnut Street 19103 Philadelphia USA"},{"longitude":-74.96321748,"latitude":40.08764728,"title":"1455 Franklin Mills 19154 Philadelphia USA"},{"longitude":-75.15790848,"latitude":39.95171417,"title":"901 Market St 19107 Philadelphia USA"},{"longitude":-111.978299,"latitude":33.6765081,"title":"21001 N Tatum Blvd 85050 Phoenix USA"},{"longitude":-80.87905508,"latitude":35.08267298,"title":"11025 Carolina Place Parkway 28134 Pineville USA"},{"longitude":-80.00960698,"latitude":40.54399168,"title":"1000 Ross Park Mall Dr  Suite A01F Pittsburgh"},{"longitude":-80.15956898,"latitude":40.45361288,"title":"100 Robinson Centre Drive  Suite 2170 Pittsburgh"},{"longitude":-86.36104648,"latitude":39.71144627,"title":"2498 Perry Crossing Way  Suite 175 Plainfield"},{"longitude":-96.83443298,"latitude":33.03081308,"title":"6121 W Park Blvd 75093 Plano USA"},{"longitude":-80.25697208,"latitude":26.11788858,"title":"8000 West Broward Boulevard  Suite #1313 Plantation"},{"longitude":-121.9313224,"latitude":37.6963056,"title":"1004 Stoneridge Mall Road Suite A 105 94588 Pleasanton USA"},{"longitude":-81.24541508,"latitude":32.13464968,"title":"200 Tanger Outlet Blvd  Space No. 101 Pooler"},{"longitude":-85.59655208,"latitude":42.22049368,"title":"6650 South Westnedge Avenue  Suite # 140 Portage"},{"longitude":-122.6784371,"latitude":45.51807548,"title":"340 SW Morrison St 97204 Portland USA"},{"longitude":-122.7836203,"latitude":45.450711,"title":"9524 SW Washington Square Rd 97223 Portland USA"},{"longitude":-75.57379768,"latitude":40.23643798,"title":"18 West Lightcap Rd  Suite 19464 Limerick"},{"longitude":-73.92306108,"latitude":41.62647308,"title":"2001 South Road 12601 Poughkeepsie USA"},{"longitude":-71.41857013,"latitude":41.82798928,"title":"One Providence Place  Suite 3320 Providence"},{"longitude":-122.3003339,"latitude":47.15806217,"title":"3500 S Meridian Unit 940 Puyallup"},{"longitude":-73.87214828,"latitude":40.73443678,"title":"90-15 Queens Blvd 11373 Elmhurst USA"},{"longitude":-78.67867098,"latitude":35.83808678,"title":"4325 Glenwood Avenue 27612 Raleigh USA"},{"longitude":-117.536868,"latitude":34.111046,"title":"12410 South Mainstreet 91739 Rancho Cucamonga USA"},{"longitude":-118.3582453,"latitude":33.8717107,"title":"1815 Hawthorne Blvd 90278 Redondo Beach USA"},{"longitude":-119.7852904,"latitude":39.47483727,"title":"5000 Meadowood Mall Circle 89502 Reno USA"},{"longitude":-77.62331318,"latitude":37.65598077,"title":"11800 West Broad Street 23233 Richmond USA"},{"longitude":-77.61075848,"latitude":37.50667937,"title":"11500 Midlothian Turnpike 23235 Richmond USA"},{"longitude":-72.71912698,"latitude":40.92173298,"title":"200 Tanger Mall Drive 11901 Riverhead USA"},{"longitude":-117.4599075,"latitude":33.91031603,"title":"1002 Galleria At Tyler 92503 Riverside USA"},{"longitude":-79.96543488,"latitude":37.30462748,"title":"4802 Valley View Blvd NW 24012 Roanoke USA"},{"longitude":-92.48169188,"latitude":44.00477508,"title":"1201 12th Street SW  Space 305 Rochester"},{"longitude":-88.97797898,"latitude":42.24617348,"title":"7200 Harrison 61112 Rockford USA"},{"longitude":-121.2707161,"latitude":38.77329827,"title":"1151 Galleria Blvd. 95678 Roseville USA"},{"longitude":-82.91906368,"latitude":42.53438117,"title":"32233 Gratiot Ave 48066 Roseville USA"},{"longitude":-93.17267938,"latitude":45.01284337,"title":"1595 Highway 36 W 55113 Roseville  MN"},{"longitude":-83.97669758,"latitude":43.47939727,"title":"4787 Fashion Square Mall  Space E Saginaw"},{"longitude":-121.6597257,"latitude":36.71801717,"title":"796 Northridge Mall 93906 Salinas USA"},{"longitude":-75.56891868,"latitude":38.39906098,"title":"2300 N Salisbury Blvd  J121 Salisbury"},{"longitude":-111.8941203,"latitude":40.76862188,"title":"30 S MAIN ST 84101 Salt Lake City USA"},{"longitude":-98.61489638,"latitude":29.59221478,"title":"15900 La Cantera Pkwy 78256 San Antonio USA"},{"longitude":-98.48687208,"latitude":29.42291088,"title":"849 E Commerce St 78205 San Antonio USA"},{"longitude":-98.49842088,"latitude":29.51836518,"title":"7400 San Pedro Ave #1330 78216 San Antonio USA"},{"longitude":-98.62322208,"latitude":29.46923618,"title":"6301 NW Loop 410  #Q10C San Antonio"},{"longitude":-98.35362498,"latitude":29.59721958,"title":"6909 N Loop 1604 E 78247 San Antonio USA"},{"longitude":-117.2995587,"latitude":34.08508278,"title":"500 Inland Center Drive  Space #340 San Bernardino"},{"longitude":-117.6294457,"latitude":33.43883138,"title":"101 W. Avenida Vista Hermosa  Suite 138 San Clemente"},{"longitude":-117.1655655,"latitude":32.7700061,"title":"7007 Friars Road 92108 San Diego USA"},{"longitude":-117.0400896,"latitude":32.54276858,"title":"4461 Camino de la Plaza Suite 301 92173 San Ysidro USA"},{"longitude":-117.2253251,"latitude":32.87104779,"title":"Suite No. 2320 92122 San Diego USA"},{"longitude":-122.4076791,"latitude":37.7839766,"title":"845 Market Street 94103 San Francisco USA"},{"longitude":-121.8679673,"latitude":37.25178918,"title":"925 Blossom Hill Road 95123 San Jose USA"},{"longitude":-121.9496047,"latitude":37.32225267,"title":"334 Santana Row 95128 San Jose USA"},{"longitude":-121.816339,"latitude":37.32538847,"title":"2200 Eastridge Loop Suite 1010 San Jose"},{"longitude":-66.02808539,"latitude":18.41248318,"title":"1000 Mall of San Juan Boulevard  store number 175 San Juan"},{"longitude":-120.6649357,"latitude":35.2812319,"title":"886 Monterey Street Space C-101 93401 San Luis Obispo USA"},{"longitude":-97.98900048,"latitude":29.82377148,"title":"4015 Interstate 35 Frontage Rd 78666 San Marcos USA"},{"longitude":-122.3023515,"latitude":37.53711762,"title":"397 Hillsdale Shopping Center 94403 San Mateo USA"},{"longitude":-111.8970451,"latitude":40.56293927,"title":"10450 South State Street  Suite 1002 Sandy"},{"longitude":-117.8719337,"latitude":33.7756986,"title":"2800 N. Main Street 92705 Santa Ana USA"},{"longitude":-119.7027022,"latitude":34.4201972,"title":"827-833 State St. 93101 Santa Barbara USA"},{"longitude":-106.0171949,"latitude":35.6360382,"title":"4250 Cerrillos Road  Suite #1054 Santa Fe"},{"longitude":-118.4972929,"latitude":34.01438058,"title":"1452 Third Street Promenade 90401 Santa Monica USA"},{"longitude":-82.45539088,"latitude":27.38357108,"title":"140 University Town Center Dr Suite 118 and 213 34243 Sarasota USA"},{"longitude":-81.09704368,"latitude":32.07993198,"title":"230-240 W Broughton Street 31401 Savannah USA"},{"longitude":120.9761792,"latitude":24.84468944,"title":"H&amp;M Space 84 31406 Savannah USA"},{"longitude":-88.04037918,"latitude":42.04721888,"title":"5 Woodfield Shopping Center 60173 Schaumburg USA"},{"longitude":-111.9313305,"latitude":33.5041442,"title":"7014 E Camelback Rd 85251 Scottsdale USA"},{"longitude":-122.3019127,"latitude":47.66385897,"title":"2604 NE University Village 98105 Seattle USA"},{"longitude":-118.4386389,"latitude":34.15636968,"title":"14006 Riverside Dr 91423 Sherman Oaks USA"},{"longitude":-77.02764448,"latitude":38.99631438,"title":"8518 Fenton St 20910 Silver Spring USA"},{"longitude":-122.6928008,"latitude":47.65767677,"title":"10315 Silverdale Way NW 98383 Silverdale USA"},{"longitude":-84.00442068,"latitude":33.89842898,"title":"1350 scenic Hwy  Suite 400 Snellville"},{"longitude":-73.2294535,"latitude":44.44846885,"title":"Suite E2 05403 Burlington USA"},{"longitude":-70.33621448,"latitude":43.63357818,"title":"364 Maine Mall Road  Suite N149 South Portland"},{"longitude":-89.99381008,"latitude":34.93626268,"title":"5205 Airways Boulevard 38671 Southhaven USA\r"},{"longitude":-119.7225485,"latitude":39.53217847,"title":"1330 Scheels Drive Suite F 289 89506 Sparks USA\r"},{"longitude":-81.99623268,"latitude":34.94029718,"title":"205 W. Blackstock Road  Building J Spartanburg\r"},{"longitude":-117.2091253,"latitude":47.67354767,"title":"14700 East Indiana Ave 99216 Spokane USA\r"},{"longitude":-117.4115623,"latitude":47.70300647,"title":"4750 North Division Street  Unit 2202 Spokane\r"},{"longitude":-89.70611598,"latitude":39.76691117,"title":"2501 Wabash Ave 62704 Springfield USA\r"},{"longitude":-77.17665848,"latitude":38.77468302,"title":"6500 Springfield Mall 22150 Springfield USA\r"},{"longitude":-93.26680158,"latitude":37.16223137,"title":"2825 Glenstone Avenue 65804 Springfield  MO\r"},{"longitude":-113.7147055,"latitude":37.1047228,"title":"Suite 1200 84790 St George USA\r"},{"longitude":-90.35002428,"latitude":38.63580478,"title":"1155 Saint Louis Galleria 63117 Saint Louis USA\r"},{"longitude":-90.61815748,"latitude":38.79607618,"title":"1600 Mid Rivers Mall Building H St Peters\r"},{"longitude":-82.73805288,"latitude":27.79296358,"title":"6901 22nd Ave North 33710 St. Petersburg USA\r"},{"longitude":-74.16905428,"latitude":40.58184137,"title":"2655 Richmond Avenue 10314 Staten Island USA\r"},{"longitude":-74.14905604,"latitude":40.64226196,"title":"One Richmond Terrace 10314 Staten Island USA\r"},{"longitude":-81.82129448,"latitude":41.30814177,"title":"1050 Southpark Center 44136 Strongsville USA\r"},{"longitude":-76.17518088,"latitude":43.06776898,"title":"1 Destiny USA Drive 13204 Syracuse USA\r"},{"longitude":-122.470901,"latitude":47.2181186,"title":"4502 South Steele St 98409 Tacoma USA\r"},{"longitude":-84.25623328,"latitude":30.43643078,"title":"1500 Apalachee Pkwy 32301 Tallahassee USA\r"},{"longitude":-82.52283218,"latitude":27.96466818,"title":"2223 N West Shore Blvd 33607 Tampa USA\r"},{"longitude":-82.52976893,"latitude":27.94668103,"title":"250 Westshore Plaza  Suite WW02A Tampa\r"},{"longitude":-82.57706588,"latitude":28.06995928,"title":"8021 Citrus Park Town Center 33625 US Tampa USA\r"},{"longitude":-83.25868558,"latitude":42.20033437,"title":"23000 Eureka  Space 1390 Taylor\r"},{"longitude":-117.1567888,"latitude":33.52456918,"title":"40820 Winchester Road 92591 Temecula USA\r"},{"longitude":-111.9671067,"latitude":33.38209888,"title":"5000 South Arizona Mills Circle  Tempe\r"},{"longitude":-111.9055921,"latitude":33.4335344,"title":"2000 E Rio Salado Pkwy 85281 Tempe USA\r"},{"longitude":-105.001415,"latitude":39.9681883,"title":"13801 Grant St 80023 Thornton USA\r"},{"longitude":-118.8889132,"latitude":34.1826904,"title":"186 W. Hillcrest #50  Space #E121 Thousand Oaks\r"},{"longitude":120.9991168,"latitude":24.78548104,"title":"Space #1040 43623 Toledo USA\r"},{"longitude":-74.18389158,"latitude":39.97982548,"title":"1201 Hooper Ave 08753 Toms River USA\r"},{"longitude":-118.3519449,"latitude":33.8310335,"title":"3525 W Carson St 90503 Torrance USA\r"},{"longitude":-76.60121648,"latitude":39.40426577,"title":"825 Dulaney Valley Road 21204 Towson USA\r"},{"longitude":-83.11510288,"latitude":42.53471528,"title":"412 W 14 Mile Rd 48083 Troy USA\r"},{"longitude":-73.22905968,"latitude":41.22944138,"title":"5065 Main Street 06611 Trumbull USA\r"},{"longitude":-110.9763235,"latitude":32.2885,"title":"4500 N Oracle Rd 85705 Tucson USA\r"},{"longitude":-110.8677064,"latitude":32.21984438,"title":"5870 E Broadway Blvd 85711 Tucson USA\r"},{"longitude":-122.2597833,"latitude":47.4581275,"title":"867 Southcenter 98188 Tukwila USA\r"},{"longitude":-95.88407398,"latitude":36.06377368,"title":"7021 South Memorial Drive  Suite 225B Tulsa\r"},{"longitude":-88.70385538,"latitude":34.30844298,"title":"1001 Barnes Crossing Rd 38804 Tupelo USA\r"},{"longitude":-95.30686448,"latitude":32.24945038,"title":"8938 S Broadway Avenue  Suite 300 Tyler\r"},{"longitude":-75.26070558,"latitude":39.95918308,"title":"2 South 69th Street 19082 Upper Darby USA\r"},{"longitude":-118.5564037,"latitude":34.4159624,"title":"24201 Valencia Blvd 91355 Valencia USA\r"},{"longitude":-73.72148038,"latitude":40.66245908,"title":"2034 Green Acres Mall 11581 Valley Stream USA\r"},{"longitude":-122.5868169,"latitude":45.6583908,"title":"8700 NE Vancouver Mall Drive  Suite 122 Vancouver\r"},{"longitude":-87.95305318,"latitude":42.24288857,"title":"109 Hawthorn Center 60061 Vernon Hills USA\r"},{"longitude":-77.42796199,"latitude":42.98259171,"title":"14564 Victor USA\r"},{"longitude":-81.55131228,"latitude":39.30164858,"title":"100 Grand Central Ave 26105 Vienna USA\r"},{"longitude":-76.07451178,"latitude":36.81621687,"title":"701 Lynnhaven Pkwy 23452 Virginia Beach USA\r"},{"longitude":-97.19083668,"latitude":31.51640488,"title":"6001 West Waco Drive  Space 54 Waco\r"},{"longitude":-76.92868258,"latitude":38.61693908,"title":"11110 Mall Circle Dr 20603 Waldorf USA\r"},{"longitude":-122.0609922,"latitude":37.89459218,"title":"73 Broadway Lane  Suite #1062 Walnut Creek\r"},{"longitude":-71.48098458,"latitude":41.72496247,"title":"400 Bald Hill Road 02886 Warwick USA\r"},{"longitude":-77.02875728,"latitude":38.89754327,"title":"1025 F Street NW 20005 Washington Washington\r"},{"longitude":-77.06596548,"latitude":38.90486238,"title":"3222 M Street Northwest 20007 Washington USA\r"},{"longitude":-80.21545318,"latitude":40.21582507,"title":"2200 Tanger Blvd Suite. 360 15301 Washington USA\r"},{"longitude":-77.04230868,"latitude":38.90501337,"title":"1133 Connecticut Avenue NW 20036 Washington USA\r"},{"longitude":119.635536,"latitude":24.69820097,"title":"Unit #C095A 13165 Waterloo USA\r"},{"longitude":-74.26198788,"latitude":40.88994768,"title":"2015 Willowbrook Mall 07470 Wayne USA\r"},{"longitude":-80.21002768,"latitude":26.64531028,"title":"10300 W Forest Hill Blvd 33414 Wellington USA\r"},{"longitude":-117.9332217,"latitude":34.07078728,"title":"1480 Plaza Drive 91790 West Covina USA\r"},{"longitude":-93.86033845,"latitude":41.5606912,"title":"50266 West Des Moines West Des Moines USA\r"},{"longitude":-73.95663148,"latitude":41.09710178,"title":"1731 Palisades Ctr. Dr. 10994 West Nyack USA\r"},{"longitude":-80.05873708,"latitude":26.70751828,"title":"700 S Rosemary Avenue 33401 West Palm Beach USA\r"},{"longitude":-72.43123948,"latitude":41.28936987,"title":"314 Flat Rock Pl F165 06498 Westbrook USA\r"},{"longitude":-81.95405808,"latitude":41.45651608,"title":"262 Main Street 44145 Westlake USA\r"},{"longitude":-77.05717278,"latitude":39.03664187,"title":"11160 Veirs Mill Road 20902 Wheaton USA\r"},{"longitude":-73.77167018,"latitude":41.03153167,"title":"100 Main Street 10601 White Plains USA\r"},{"longitude":-97.24934063,"latitude":37.68371013,"title":"7700 E. Kellogg  Room M04A Wichita\r"},{"longitude":-75.84657793,"latitude":41.24645857,"title":"29 Wyoming Valley Mall  Unit #0224 Wikes-Barre\r"},{"longitude":-75.12564168,"latitude":40.14011727,"title":"2500 Moreland Road 19090 Willow Grove USA\r"},{"longitude":-75.54678078,"latitude":39.82122027,"title":"4737 Concord Pike 19803 Wilmington USA\r"},{"longitude":-77.83401988,"latitude":34.24387368,"title":"833 Towne Center Drive Suite 110 28405 Wilmington  NC\r"},{"longitude":-80.30225808,"latitude":36.07033188,"title":"3320 Silas Creek Pkwy 27103 Winston-Salem USA\r"},{"longitude":-74.30220098,"latitude":40.55525018,"title":"291 Woodbridge Center Dr 07095 Woodbridge USA\r"},{"longitude":-77.29871288,"latitude":38.64319287,"title":"2700 Potomac Mills Circle 22192 Woodbridge USA\r"},{"longitude":-92.92782138,"latitude":44.94740737,"title":"9100 Hudson Rd 55125 Woodbury USA\r"},{"longitude":-73.85666738,"latitude":40.92791057,"title":"6 Xavier Drive 10704 Yonkers USA\r"},{"longitude":-73.85921078,"latitude":40.96502688,"title":"195 Market Street 10710 Yonkers USA\r"},{"longitude":-76.67788978,"latitude":39.98909242,"title":"One York Galleria  Space E York\r"},{"longitude":-73.80990788,"latitude":41.32861657,"title":"650 Lee Blvd 10598 Yorktown Heights USA\r"},{"longitude":-80.66199538,"latitude":41.02011317,"title":"7401 Market St 44512 Youngstown USA"}]}